{"locations":[
{"store_name":"The Orange Bicycle",
"latitude":"12.969534",
"longitude":"77.638589"
},
{"store_name":"Soch",
"latitude":"13.009485",
"longitude":"77.563375"
},
{"store_name":"Nauchandi",
"latitude":"12.970925",
"longitude":"77.648028"
},
{"store_name":"Smart Gardens",
"latitude":"12.976902",
"longitude":"77.654095"
},
{"store_name":"Kudoz Studio",
"latitude":"12.931713",
"longitude":"77.62835"
},
{"store_name":"United Colors of Benetton",
"latitude":"12.986126",
"longitude":"77.703706"
},
{"store_name":"Bohome",
"latitude":"12.969144",
"longitude":"77.638837"
},
{"store_name":"Studio by Untold Homes",
"latitude":"12.964383",
"longitude":"77.639478"
},
{"store_name":"United Colors of Benetton",
"latitude":"12.97965",
"longitude":"77.649147"
},
{"store_name":"Bata",
"latitude":"13.009485",
"longitude":"77.563375"
}
]}